{"status":"ok","message":"","data":[{"address":"Av. Felipe Sevilla del R\u00edo N\u00fam. 536, Col. Lomas de Circunvalaci\u00f3n, Colima, Colima.","emails":"gtecomercial@suzukicolima.com.mx","id":"40","key":"colima","lat":"19.2505","lon":"-103.71","name":"Suzuki Colima","phone":"01-(312)-316-3263","state":"Colima","state_key":"coli","website":"","zip":"28010"},{"address":"Av. L\u00f3pez Mateos N\u00fam. 5654 Col. Arboledas, Zapopan, Jalisco.","emails":"coconnor@suzukivallarta.com.mx,coordinador@suzuki-lm.com.mx,posventa@suzuki-lm.com.mx,refacciones@suzuki-lm.com.mx,asistenteventas@suzukivallarta.com.mx","id":"16","key":"lopez-mateos","lat":"20.6244","lon":"-103.421","name":"Suzuki L\u00f3pez Mateos","phone":"01-(33)-3884-8200","state":"Jalisco","state_key":"jali","website":"http://www.suzukilopezmateos.com.mx","zip":"45070"},{"address":"Periferico paseo de la republica 3169 C.P. 58270","emails":"rrivas@suzukimorelia.com.mx,asistventas@suzukimorelia.com.mx","id":"23","key":"morelia","lat":"19.6887","lon":"-101.152","name":"Suzuki Morelia","phone":"01-(443)-500-53-00","state":"Michoac\u00e1n","state_key":"mich","website":"","zip":"58270"},{"address":"Av. Vallarta N\u00fam. 5300 Col. Jardines  Vallarta, Zapopan, Jalisco.","emails":"coconnor@suzukivallarta.com.mx,postventa@suzukivallarta.com.mx,refacciones@suzukivallarta.com.mx,asistenteventas@suzukivallarta.com.mx","id":"15","key":"vallarta","lat":"20.6801","lon":"-103.426","name":"Suzuki Vallarta","phone":"01-(33)-3777-1989","state":"Jalisco","state_key":"jali","website":"","zip":"45027"}]}