{
    "status": "ok",
    "message": "",
    "data": [
        {
            "address": "Av. Felipe Sevilla del Río Núm. 536, Col. Lomas de Circunvalación, Colima, Colima.",
            "emails": "gtecomercial@suzukicolima.com.mx",
            "id": "3",
            "key": "colima",
            "lat": "19.2505",
            "lon": "-103.71",
            "name": "Suzuki Colima",
            "phone": "01-(312)-316-3263",
            "state": "Colima",
            "state_key": "coli",
            "website": "http://www.suzukicolima.com.mx",
            "zip": "28010"
        },
        {
            "address": "Av. López Mateos Núm. 5654 Col. Arboledas, Zapopan, Jalisco.",
            "emails": "coconnor@suzukivallarta.com.mx,coordinador@suzuki-lm.com.mx,posventa@suzuki-lm.com.mx,refacciones@suzuki-lm.com.mx,asistenteventas@suzukivallarta.com.mx",
            "id": "2",
            "key": "lopez-mateos",
            "lat": "20.6244",
            "lon": "-103.421",
            "name": "Suzuki López Mateos",
            "phone": "01-(33)-3884-8200",
            "state": "Jalisco",
            "state_key": "jali",
            "website": "http://www.suzuki-lm.com.mx",
            "zip": "45070"
        },
        {
            "address": "Periférico Paseo de la República 3169",
            "emails": "rrivas@suzukimorelia.com.mx,asistventas@suzukimorelia.com.mx",
            "id": "4",
            "key": "morelia",
            "lat": "19.6887",
            "lon": "-101.152",
            "name": "Suzuki Morelia",
            "phone": "01-(443)-500-53-00",
            "state": "Michoacán",
            "state_key": "mich",
            "website": "http://www.suzukimorelia.com.mx",
            "zip": "58270"
        },
        {
            "address": "Av. Vallarta Núm. 5300 Col. Jardines  Vallarta, Zapopan, Jalisco.",
            "emails": "coconnor@suzukivallarta.com.mx,postventa@suzukivallarta.com.mx,refacciones@suzukivallarta.com.mx,asistenteventas@suzukivallarta.com.mx",
            "id": "1",
            "key": "vallarta",
            "lat": "20.6801",
            "lon": "-103.426",
            "name": "Suzuki Vallarta",
            "phone": "01-(33)-3777-1989",
            "state": "Jalisco",
            "state_key": "jali",
            "website": "http://www.suzukivallarta.com.mx",
            "zip": "45027"
        }
    ]
}
